	loc_name	address	dates	scores	reviews	latitude	longitude
0	스타벅스 국립대구박물관DT점	황금동 69-3 64-5	2020-04-09 18:22:58.723404288	4.74468085106383	45	35.8455517	128.6390884
1	스타벅스 대구영대병원역DT점	봉덕동 595-7	2020-04-08 01:06:58.604651264	4.744186046511628	78	35.8454732	128.5935246
2	스타벅스 경주터미널DT점	사정동 488-7 8	2020-01-14 13:14:28.965517312	4.741379310344827	220	35.8381689	129.2033261
3	스타벅스 대구수성네거리DT점	수성동4가 1021-8	2019-11-26 12:05:10.791366912	4.7338129496402885	128	35.8604584	128.6180418
4	스타벅스 광주매곡DT점	매곡동 15	2019-11-06 12:13:20.000000000	4.724537037037037	204	35.1898357	126.8986979
5	스타벅스 목포터미널DT점	상동 135	2020-03-04 10:20:00.000000000	4.722222222222221	64	35.8339376	128.6118637
6	스타벅스 아산방축DT점	방축동 124-5	2020-05-10 17:01:23.720930304	4.72093023255814	76	36.7836376	126.99267
7	스타벅스 울산MBC DT점	복산동 40-6	2020-01-14 08:16:50.526315776	4.7134502923976624	167	35.5616281	129.3323601
8	스타벅스 포항쌍용DT점	상도동 601	2019-12-08 17:45:05.325443840	4.710059171597633	162	37.4989895	126.9377193
9	스타벅스 광주주월DT점	주월동 960-13	2020-03-25 18:00:00.000000000	4.700892857142857	105	35.1341387	126.8981372
10	스타벅스 청주사직DT점	충북 청주시 서원구 사직동 126-14	2020-02-05 19:40:27.906976768	4.700581395348837	167	36.6358593	127.48118
11	스타벅스 광주지산DT점	동명동 12-3	2020-03-28 06:11:36.774193664	4.693548387096773	86	35.1497144	126.9290755
12	스타벅스 광주신안DT점	신안동 333	2020-02-14 00:15:14.285714176	4.687830687830688	178	35.1714325	126.8949657
13	스타벅스 여수학동DT점	학동 67-6 18, 19	2020-06-07 11:04:36.923076864	4.682692307692308	50	34.7614394	127.660968
14	스타벅스 대전신탄진DT점	석봉동 309-10	2019-12-20 22:00:00.000000000	4.681818181818182	126	36.44866030000001	127.4199831
15	스타벅스 수원권선DT점	오목천동 321-20	2019-12-19 21:53:28.368200960	4.679916317991632	202	37.2463619	126.9640167
16	스타벅스 대구칠곡대로DT점	태전동 1049-2	2020-01-26 02:32:11.707316992	4.678861788617887	113	35.92659	128.5479626
17	스타벅스 고양DT점	고양동 568	2020-02-15 18:02:37.664233472	4.678832116788321	130	37.7095394	126.9052947
18	스타벅스 대구수성도서관DT점	만촌동 1329-17 1, 33, 34	2020-02-10 02:38:38.644067840	4.677966101694915	107	35.8727987	128.6389953
19	스타벅스 대구상인DT점	상인동 54-3 1~2층	2020-01-31 02:38:38.644067840	4.673728813559323	111	35.822283	128.5343795
20	스타벅스 안성석정DT점	석정동 254-3	2020-01-27 13:15:25.714285824	4.6714285714285735	98	37.0103421	127.2620805
21	스타벅스 용인상하DT점	경기 용인시 기흥구 상하동 249-2	2020-02-10 11:48:00.000000000	4.670833333333333	112	37.2596715	127.1424797
22	스타벅스 대구앞산DT점	대명동 493-38	2020-04-12 12:00:00.000000000	4.670454545454546	86	35.8356394	128.579943
23	스타벅스 창원호계DT점	호계리 177-2	2020-02-11 10:05:13.043478272	4.670289855072464	124	35.2615074	128.5230356
24	스타벅스 대전터미널DT점	성남동 502-2	2020-03-21 03:05:48.387096832	4.669354838709677	57	36.3477532	127.4342841
25	스타벅스 광주월산DT점	월산동 963-3	2020-03-02 03:39:20.264900608	4.66887417218543	144	35.1457088	126.8909107
26	스타벅스 남양산IC DT점	석산리 966	2020-03-20 02:38:57.662337536	4.6688311688311686	143	35.3194621	129.0306908
27	스타벅스 온천장역DT점	장전동 607-6	2020-01-26 06:44:23.013698560	4.667808219178082	133	35.2239552	129.086568
28	스타벅스 김포감정DT점	감정동 502-20	2020-02-10 02:25:27.272727296	4.666666666666667	182	37.6247863	126.6964285
29	스타벅스 울산남구청DT점	신정동 133-1	2020-02-04 04:27:41.538461440	4.666666666666667	147	35.5441545	129.3245996
30	스타벅스 광주금호DT점	쌍촌동 902-13	2019-12-10 01:41:56.814159360	4.663716814159292	106	35.1421126	126.8576646
31	스타벅스 신월IC DT점	신월동 205-49	2020-01-20 21:05:14.563106816	4.662621359223301	185	37.5293911	126.8320559
32	스타벅스 대구칠성DT점	칠성동2가 371-5	2020-02-12 23:02:46.887417344	4.662251655629139	141	35.879674	128.5963911
33	스타벅스 제주외도DT점	외도일동 401-1	2020-03-31 08:06:45.633802752	4.661971830985915	68	33.4923073	126.4271223
34	스타벅스 의정부신곡DT점	경기 의정부시 신곡동 263-17	2020-02-01 22:19:53.582887680	4.660427807486631	181	37.7261653	127.0647318
35	스타벅스 경인교대입구역DT점	작전동 852-30 852-31	2020-04-16 18:02:37.664233472	4.656934306569343	128	37.5355197	126.722153
36	스타벅스 의정부녹양DT점	가능동 93-1 92-2 (2필지)	2020-01-13 08:36:00.000000000	4.654166666666667	113	37.7584788	127.0402351
37	스타벅스 인천당하DT점	당하동 1092-7	2020-01-22 04:54:15.652173824	4.652173913043479	217	37.593359	126.675556
38	스타벅스 군산나운DT점	나운동 843-6	2020-04-05 19:40:48.000000000	4.65	96	35.9626875	126.6955737
39	스타벅스 부천중동DT점	중동 628-14	2020-01-09 02:22:13.333333248	4.648148148148149	157	37.4963743	126.7642
40	스타벅스 대구감삼DT점	감삼동 490-1	2020-01-16 02:30:00.000000000	4.643229166666667	186	35.8443842	128.5366553
41	스타벅스 대구성서IC DT점	용산동 410-9 12	2020-02-06 08:50:00.000000000	4.642361111111111	138	35.8507998	128.5202604
42	스타벅스 청주용암DT점	용암동 1693 행복을 만드는집	2020-03-16 23:33:00.000000000	4.640625	154	36.607523	127.5039128
43	스타벅스 대구황금DT점	지산동 941	2020-02-05 03:46:31.011235840	4.640449438202247	85	35.83906880000001	128.625797
44	스타벅스 용인김량장DT점	김량장동 177-1	2020-03-13 08:03:34.925373184	4.638059701492537	118	37.239832	127.2104973
45	스타벅스 원주반곡DT점	반곡동 1141	2020-03-11 11:19:45.093167616	4.636645962732919	151	37.3196347	127.9715718
46	스타벅스 일산애니골DT점	풍동 609	2020-02-05 13:35:39.860139776	4.636363636363637	139	37.6745369	126.7931915
47	스타벅스 금정남산동DT점	남산동 68-1 남산프라자	2020-04-13 18:00:00.000000000	4.636363636363637	84	35.2644337	129.0926098
48	스타벅스 경주보문로DT점	천군동 1584-33 외 1번지(신평동 719-220)	2020-01-14 18:44:40.291970816	4.635036496350367	128	35.8388242	129.2859021
49	스타벅스 세종다정DT점	다정동 639	2020-02-27 10:07:30.000000000	4.6328125	175	0	0
50	스타벅스 제천DT점	중앙로2가 68-3	2020-02-03 23:38:00.916030464	4.629770992366412	123	37.1436691	128.2128533
51	스타벅스 동해DT점	천곡동 1020	2020-02-09 05:23:43.255813888	4.627906976744186	121	37.5201864	129.1147727
52	스타벅스 광주화정DT점	화정동 769-1	2019-12-30 01:34:35.912408832	4.627737226277373	128	35.1522047	126.8799969
53	스타벅스 기장역DT점	청강리 31-1	2020-04-09 23:07:57.108433664	4.6265060240963845	74	35.2421513	129.220117
54	스타벅스 해운대달맞이DT점	중동 1779	2019-12-20 21:39:30.731707392	4.626016260162602	118	29.2985278	42.5509603
55	스타벅스 울산도산사거리DT점	울산 남구 야음동 580	2020-01-19 19:32:58.807947008	4.6258278145695355	140	35.5311407	129.3301545
56	스타벅스 구미상모DT점	상모동 478-5 상모주유소	2020-02-18 10:31:50.204081664	4.625	190	36.0823172	128.3563847
57	스타벅스 안성공도DT점	마정리 147-8	2020-03-05 11:00:00.000000000	4.625	134	37.0095034	127.2007549
58	스타벅스 의정부용현DT점	경기 의정부시 용현동 189-3 4, 20, 21, 22(5필지)	2020-02-14 08:57:08.571428608	4.623015873015873	119	37.7305628	127.0843037
59	스타벅스 포항장성DT점	장성동 1577-8	2020-02-06 00:00:00.000000000	4.622580645161291	149	36.07453539999999	129.3842141
60	스타벅스 대구공평DT점	동인동2가 25-1 1~2층	2020-01-18 23:20:00.000000000	4.62037037037037	200	35.8695386	128.6007534
61	스타벅스 동대구로DT점	신천동 300-2	2020-01-13 14:31:06.666666752	4.62037037037037	156	35.8680868	128.6271589
62	스타벅스 청주용담DT점	충북 청주시 상당구 용담동 324-36	2020-01-01 15:38:44.050632960	4.620253164556962	143	36.6342108	127.505078
63	스타벅스 을숙도강변DT점	하단동 1157-17	2020-02-12 12:34:33.600000000	4.62	238	35.1152603	128.9595779
64	스타벅스 충주호암DT점	호암동 653-2 4	2020-04-26 12:32:30.967741952	4.619354838709677	138	36.9589788	127.9236984
65	스타벅스 김해대로DT점	삼정동 616-5	2019-11-15 22:02:47.441860352	4.616279069767441	82	35.2279643	128.8965541
66	스타벅스 전남광양DT점	중동 1321-4	2020-03-12 17:25:42.857142784	4.616071428571429	157	29.2985278	42.5509603
67	스타벅스 동두천DT점	지행동 475-1	2020-03-07 00:41:32.307692288	4.615384615384615	94	37.888925	127.0570663
68	스타벅스 인천강화DT점	갑곳리 203-10	2020-03-27 23:25:18.072289280	4.614457831325301	80	37.7434197	126.4907102
69	스타벅스 수원KBS DT점	인계동 363-5	2019-12-31 22:11:19.245283072	4.613207547169812	148	37.2711224	127.0352126
70	스타벅스 대구월곡DT점	상인동 620	2019-12-23 14:13:20.000000000	4.611111111111111	75	35.8148659	128.5410568
71	스타벅스 인천간석DT점	간석동 617-6	2019-12-09 03:55:45.132743424	4.610619469026549	210	37.4697191	126.6907451
72	스타벅스 대전대사DT점	대사동 248-296	2019-12-26 23:39:34.468084992	4.609929078014185	127	36.3188226	127.4174629
73	스타벅스 대구침산DT점	침산동 245-1	2020-02-01 06:45:31.034482688	4.609195402298852	162	35.8874784	128.5918376
74	스타벅스 수원세류DT점	세류동 325-1	2020-05-23 13:17:50.270270208	4.608108108108109	68	37.262829	127.0112092
75	스타벅스 광주선운DT점	선암동 572	2020-04-14 09:24:42.352941056	4.607843137254903	45	35.5129368	129.3352191
76	스타벅스 대구중동네거리DT점	중동 184-4	2020-02-29 10:42:27.692307712	4.607692307692306	59	35.8409171	128.6139627
77	스타벅스 구미시청DT점	송정동 33-11	2020-02-08 15:16:21.818181888	4.607142857142857	148	36.1176314	128.3416068
78	스타벅스 계룡대로DT점	엄사리 284	2020-02-26 09:25:42.857142784	4.607142857142857	131	36.2883806	127.2443977
79	스타벅스 목포북항DT점	산정동 1750-8 외 2필지	2020-02-04 13:03:47.848101376	4.604430379746836	146	34.8086337	126.3732658
80	스타벅스 광주상무DT점	쌍촌동 973-9	2020-03-12 12:56:58.705036032	4.60431654676259	132	35.1499296	126.8548315
81	스타벅스 서산예천DT점	예천동 696-7	2020-02-25 14:58:47.516778496	4.604026845637584	139	36.7717265	126.4401714
82	스타벅스 명지강변DT점	명지동 1459-1	2020-05-15 19:55:06.122448896	4.6020408163265305	138	35.1026237	128.9294804
83	스타벅스 대전한남대DT점	중리동 231-10	2020-01-18 03:16:21.818181888	4.598484848484849	127	36.3584284	127.4231358
84	스타벅스 영등포신길DT점	신길동 252-9 253-331253-333253-334253-335253-336	2020-02-05 04:48:55.031847168	4.597133757961784	293	37.50455729999999	126.9100739
85	스타벅스 마산회원DT점	회원동 43-5	2020-03-29 17:27:16.363636480	4.596590909090909	86	35.2205449	128.5744467
86	스타벅스 일산덕이DT점	덕이동 469 469-1	2020-02-27 05:21:19.338842880	4.595041322314049	117	37.6917933	126.7565987
87	스타벅스 청주봉명DT점	봉명동 1404 SK주유소	2020-01-30 02:19:53.142857216	4.594285714285714	162	36.6385174	127.4598377
88	스타벅스 화곡DT점	화곡동 772-67	2020-02-07 21:47:53.394495488	4.594036697247708	206	37.5350355	126.8631182
89	스타벅스 평택안중DT점	현화리 649-4 649-8, 649-10, 652, 652-1	2020-04-11 07:45:52.941176576	4.5931372549019605	95	36.9908158	126.9134157
90	스타벅스 대전IC DT점	비래동 555-15	2019-11-13 01:53:23.149606400	4.590551181102362	121	36.3542137	127.4445324
91	스타벅스 부산재송DT점	재송동 572-2 외 4필지	2020-01-08 21:52:56.470588160	4.588235294117646	120	35.181271	129.1240501
92	스타벅스 남양주연평DT점	연평리 59-3	2020-02-08 02:34:17.142857216	4.584821428571429	102	37.7113167	127.1853201
93	스타벅스 원당DT점	주교동 620-1	2020-02-02 01:21:00.000000000	4.584375	147	37.6581532	126.8376202
94	스타벅스 울산정자비치DT점	산하동 398	2020-01-30 15:18:15.652173824	4.583333333333333	129	35.6271636	129.4411289
95	스타벅스 광주효천DT점	임암동 141-3 143-2	2020-04-02 20:55:23.076923136	4.583333333333333	68	35.0999185	126.8714673
96	스타벅스 안양비산DT점	비산동 580-6	2020-01-03 18:30:38.297872384	4.582446808510638	179	37.3924933	126.9428578
97	스타벅스 광주방림DT점	방림동 343-20	2020-01-07 01:25:58.208955136	4.5820895522388065	182	35.1349802	126.9176978
98	스타벅스 광주운암DT점	운암동 65-11	2020-01-23 19:27:09.473684224	4.5815789473684205	180	35.1776306	126.8784132
99	스타벅스 창원역DT점	팔용동 157-2	2020-01-07 06:53:16.412556032	4.5807174887892375	213	35.2569752	128.6078822
100	스타벅스 양주송추DT점	교현리 112-2	2020-04-09 11:02:24.000000000	4.58	47	37.7175251	126.9730933
101	스타벅스 양주광사DT점	광사동 342-7	2020-02-27 23:09:01.592920320	4.579646017699115	105	37.7905323	127.0724205
102	스타벅스 의정부회룡역DT점	호원동 433-1	2020-02-06 19:19:14.716981248	4.578616352201258	148	37.7223727	127.0474765
103	스타벅스 용인마북DT점	마북동 502-152	2019-12-30 06:27:41.538461440	4.5769230769230775	174	37.2947324	127.1102926
104	스타벅스 부천심곡DT점	심곡동 110-5	2020-02-20 19:03:31.764705792	4.576470588235294	161	37.4929848	126.7843652
105	스타벅스 송파나루역DT점	송파동 59-9 송봉주유소	2020-02-17 13:57:57.966101760	4.573446327683616	164	37.5107662	127.1102915
106	스타벅스 당진시곡DT점	충남 당진시 시곡동 67-2 대우임산제재소	2020-02-27 05:20:00.000000000	4.572649572649572	107	36.9026106	126.6837943
107	스타벅스 동래미남DT점	온천동 1428-36	2020-01-23 14:22:06.315789568	4.572368421052632	145	35.2071981	129.0719709
108	스타벅스 송파방이DT점	방이동 226-10	2020-02-09 21:07:12.000000000	4.57	148	37.5065478	127.1205263
109	스타벅스 김해외동DT점	경남 김해시 외동 559 1~2층	2020-02-01 19:52:15.483870976	4.56989247311828	85	35.2293661	128.8627976
110	스타벅스 광주지원DT점	광주 동구 용산동 168-1	2020-05-11 21:49:05.454545408	4.568181818181818	64	35.1183787	126.9333814
111	스타벅스 공주동학사DT점	학봉리 436-1	2020-02-28 15:08:06.486486528	4.567567567567568	106	36.36336	127.2535628
112	스타벅스 안양호계DT점	호계동 714-5	2020-01-06 12:48:00.000000000	4.566666666666666	141	37.3665605	126.9560115
113	스타벅스 원주명륜DT점	명륜동 290-1	2020-03-11 22:48:00.000000000	4.565	181	37.335916	127.9499284
114	스타벅스 인천갈산DT점	갈산동 32-2 34-1	2019-11-24 13:48:46.618705152	4.5647482014388485	133	37.5187059	126.7320347
115	스타벅스 충남보령DT점	궁촌동 133-1	2020-04-10 07:02:45.137614592	4.564220183486238	99	36.3408254	126.5893248
116	스타벅스 대구만촌DT점	만촌동 853-3	2019-12-27 05:44:36.923076864	4.564102564102563	114	35.8563651	128.6502429
117	스타벅스 수원연무DT점	연무동 247-16	2020-03-18 04:55:42.857142784	4.5625	102	37.2921664	127.0287308
118	스타벅스 수원망포DT점	망포동 38-23 GS칼텍스삼신주유소	2020-01-29 15:08:29.871244544	4.560085836909871	223	37.24582770000001	127.05134
119	스타벅스 대전판암DT점	판암동 450	2020-02-05 03:24:29.822485248	4.559171597633137	160	36.3170133	127.4536232
120	스타벅스 구의DT점	구의동 67-36	2020-01-11 13:21:34.581280768	4.559113300492611	190	37.545357	127.0871714
121	스타벅스 광주운남DT점	운남동 414-31	2020-01-06 07:30:00.000000000	4.559027777777779	126	35.1751089	126.8180646
122	스타벅스 포항죽도DT점	죽도동 699-1	2020-03-15 07:37:40.465116160	4.558139534883721	124	36.0184362	129.3480514
123	스타벅스 동부산DT점	시랑리 589-6	2020-01-12 13:22:49.911504384	4.557522123893804	99	35.1839631	129.2108509
124	스타벅스 제주성산DT점	고성리 238	2020-01-16 15:55:03.092783616	4.551546391752577	270	33.4445754	126.9095025
125	스타벅스 동명대DT점	용당동 532-26	2019-12-15 17:44:20.869565184	4.551383399209486	241	35.1231425	129.098904
126	스타벅스 수영강변DT점	반여동 1201	2020-01-28 03:38:44.050632960	4.550632911392405	151	35.2038182	129.1193574
127	스타벅스 울산북구청DT점	연암동 1223-2 2필지	2020-02-16 03:10:20.689655296	4.545977011494252	167	35.5834832	129.3588839
128	스타벅스 경산중방DT점	중방동 847-6	2019-12-19 09:34:32.727272704	4.545454545454546	188	35.8274664	128.7370404
129	스타벅스 익산영등DT점	영등동 340-11	2020-01-19 12:30:08.372092928	4.544186046511628	207	35.9593431	126.9688995
130	스타벅스 제주애월DT점	고내리 340	2020-02-01 18:27:41.538461440	4.5427350427350435	218	33.4726175	126.3487469
131	스타벅스 춘천석사DT점	석사동 799-4	2020-02-08 00:45:28.421052672	4.542105263157895	268	37.8566079	127.7393261
132	스타벅스 인천서구청DT점	심곡동 248-5	2020-01-08 05:24:19.459459584	4.54054054054054	206	37.5424162	126.67636
133	스타벅스 여주DT점	점봉동 429-1	2020-01-13 07:39:34.468084992	4.537234042553191	90	35.9369713	127.1621328
134	스타벅스 천안IC DT점	신부동 495-1	2020-02-18 07:06:14.400000000	4.5360000000000005	121	36.8203757	127.1613598
135	스타벅스 인천용현DT점	용현동 630-9	2020-02-03 23:31:29.108910848	4.534653465346534	186	37.4523373	126.6325809
136	스타벅스 경주보문호수DT점	북군동 57-40 1~3층	2019-12-11 14:58:27.692307712	4.534188034188034	114	35.8532391	129.2686877
137	스타벅스 의정부예술의전당DT점	의정부동 543-6	2020-03-13 18:48:09.171974400	4.531847133757962	148	37.733071	127.0388841
138	스타벅스 김포풍무DT점	풍무동 620-11	2019-12-13 19:29:13.846153728	4.529914529914531	107	37.599827	126.7204152
139	스타벅스 전북대병원DT점	전북 전주시 덕진구 금암동 1552-19	2020-04-01 05:29:29.491525376	4.529661016949152	104	35.8415265	127.1371127
140	스타벅스 울산시청사거리DT점	달동 875-12	2019-12-21 19:12:00.000000000	4.5280000000000005	122	35.5372128	129.313549
141	스타벅스 동탄능동DT점	능동 471-7	2020-02-15 16:21:05.934065920	4.527472527472527	171	37.2137507	127.0635819
142	스타벅스 광주신세계DT점	화정동 177-2	2020-03-01 06:30:41.860465152	4.523255813953488	116	35.1562471	126.8827962
143	스타벅스 인천동춘DT점	동춘동 224-5	2020-02-08 21:51:49.947643904	4.520942408376963	169	37.41249450000001	126.664392
144	스타벅스 여수둔덕DT점	둔덕동 491-1	2019-12-16 11:40:11.009174272	4.5183486238532105	103	34.7689468	127.6974692
145	스타벅스 동수원DT점	우만동 153-7 유성주유소	2020-01-03 11:42:56.303317504	4.516587677725118	204	37.2780155	127.0337778
146	스타벅스 광주흑석DT점	산정동 909-3	2019-10-02 05:03:09.473684224	4.515789473684211	89	35.1769543	126.8077963
147	스타벅스 울산호계DT점	신천동 546-2 546-7	2020-05-22 02:10:54.545454592	4.5151515151515165	61	37.5200705	127.0995
148	스타벅스 수원경수인계DT점	경기 수원시 팔달구 인계동 963-11	2020-04-22 12:19:27.567567616	4.513513513513512	66	37.2705236	127.02756
149	스타벅스 대구상동DT점	상동 415-1	2020-01-07 03:25:42.857142784	4.512987012987013	75	35.8296424	128.6116932
150	스타벅스 이천사음DT점	사음동 572-1	2020-02-12 13:14:28.965517312	4.512931034482759	106	37.2991064	127.4078413
151	스타벅스 평내DT점	평내동 246-2	2020-02-08 10:27:58.195488768	4.511278195488722	122	37.6477605	127.2346938
152	스타벅스 마산역DT점	석전동 223-4	2019-12-31 16:43:56.619718400	4.51056338028169	134	35.2362004	128.5805449
153	스타벅스 일산풍동DT점	경기 고양시 일산동 풍동 879	2020-01-03 11:13:45.688073472	4.509174311926606	99	37.6621092	126.8009513
154	스타벅스 광주용두DT점	광주 북구 신용동 산41-19	2020-02-23 19:34:31.508379904	4.5083798882681565	167	35.2127954	126.8684744
155	스타벅스 금정구청DT점	부곡동 217-2	2020-02-02 12:09:51.780822016	4.506849315068493	134	35.2388015	129.0928998
156	스타벅스 부평삼거리역DT점	간석동 772	2020-03-28 16:03:27.194244608	4.503597122302159	133	37.4765331	126.7102019
157	스타벅스 수원인계DT점	인계동 1019 1~2층	2019-12-29 22:45:05.202312192	4.502890173410406	164	37.267942	127.0282099
158	스타벅스 천안불당DT점	불당동 1844	2020-01-27 00:36:00.000000000	4.5	112	36.8053819	127.106278
159	스타벅스 마산해안대로DT점	오동동 317	2020-02-08 09:27:16.363636480	4.497474747474747	190	35.2041973	128.5805718
160	스타벅스 신영통DT점	반월동 163-3	2020-02-04 13:37:01.276595712	4.49645390070922	136	37.2343091	127.063002
161	스타벅스 대구도원DT점	도원동 577	2020-02-12 20:17:33.658536704	4.495934959349594	110	35.8077269	128.5481165
162	스타벅스 강릉송정DT점	강원도 강릉시 경강로 2402    2020-03-31 18:56:50.526315776	4.494736842105263	89.0	0	37.7718657	128.9229264
163	스타벅스 낙성대DT점	봉천동 1657-3	2019-12-21 10:23:39.718309888	4.494718309859155	273	37.4761693	126.9650053
164	스타벅스 김해구산DT점	구산동 836-1	2020-03-22 04:41:44.347826176	4.494565217391305	86	35.2553715	128.8664291
165	스타벅스 인천학익DT점	학익동 690-2 평산면옥	2020-02-13 18:30:35.294117632	4.493464052287582	139	36.3143572	127.3993572
166	스타벅스 강동구청DT점	성내동 550	2020-02-24 05:35:32.038834944	4.492718446601941	195	37.5291389	127.1237922
167	스타벅스 제주도남DT점	도남동 377	2020-03-27 22:11:19.245283072	4.4905660377358485	103	33.4803586	126.523452
168	스타벅스 김천시청DT점	신음동 1000-3	2020-01-20 14:58:38.796992512	4.488721804511278	120	36.1325039	128.1175904
169	스타벅스 천안성정DT점	성정동 625-3	2020-01-01 00:38:24.000000000	4.486666666666666	138	36.82532	127.1402297
170	스타벅스 수원IC DT점	영덕동 522-2 LG동광주유소	2019-12-27 07:53:33.422818816	4.4865771812080535	136	37.2671855	127.0744855
171	스타벅스 경남사천DT점	수석리 320-1	2020-04-02 00:13:12.660550400	4.486238532110092	104	35.0811505	128.0837012
172	스타벅스 양주덕정역DT점	덕정동 223-8	2020-03-12 18:10:05.607476736	4.485981308411215	98	37.838197	127.0630407
173	스타벅스 안양운동장사거리DT점	비산동 1054	2020-02-19 07:48:20.970873856	4.485436893203882	191	37.40111	126.9492085
174	스타벅스 구미금오산DT점	남통동 414-4 - 4번지	2020-01-08 02:29:16.097561088	4.4847560975609735	152	36.12223640000001	128.3239723
175	스타벅스 평촌역DT점	관양동 902 1필지	2020-04-20 07:56:13.228346368	4.484251968503936	112	37.3965683	126.9716158
176	스타벅스 연희DT점	연희동 87-7 ,87-8	2020-02-14 01:57:00.000000000	4.48125	153	37.57017440000001	126.9339647
177	스타벅스 대구평리DT점	평리동 1407-7	2020-01-12 19:56:18.461538560	4.480769230769232	125	35.8664101	128.555225
178	스타벅스 광주산정DT점	산정동 917-11	2019-11-03 04:11:39.029126144	4.480582524271845	92	35.1734186	126.8041803
179	스타벅스 전주백제대로DT점	중화산동2가 648	2020-01-24 08:05:29.142857216	4.48	167	35.8146019	127.1234249
180	스타벅스 다대포DT점	다대동 293-1	2020-02-20 05:42:17.704918016	4.479508196721312	114	35.0556365	128.9674986
181	스타벅스 대구중동DT점	대전광역시 동구 중동 316-3	2020-01-19 11:18:20.826446336	4.4793388429752055	113	36.3319211	127.4269313
182	스타벅스 화성병점DT점	진안동 873-4	2019-12-29 21:39:30.731707392	4.478658536585366	151	37.2126104	127.0382295
183	스타벅스 대전유천DT점	유천동 185-3	2020-01-22 15:16:21.818181888	4.475206611570248	119	36.3182966	127.3982383
184	스타벅스 경기광주송정DT점	송정동 12-12 1필지	2020-03-31 11:41:32.307692288	4.474358974358975	73	37.424435	127.2628415
185	스타벅스 평택서정DT점	서정동 813-2	2020-03-11 04:08:16.551724032	4.474137931034483	111	37.065982	127.063464
186	스타벅스 충주시청DT점	금릉동 714	2019-12-31 12:39:16.363636480	4.4727272727272736	105	36.9901946	127.9286843
187	스타벅스 진주칠암DT점	주약동 109-3 9필지	2020-01-01 09:26:55.748031488	4.47244094488189	124	35.174793	128.092816
188	스타벅스 신림DT점	신림동 564-12	2020-01-30 00:00:00.000000000	4.471590909090909	168	37.4626176	126.9383251
189	스타벅스 풍무사거리DT점	풍무동 57-1	2020-05-12 11:07:49.565217280	4.471014492753623	64	37.60777840000001	126.7227423
190	스타벅스 제주용담DT점	용담삼동 2572-4 화이트하우스	2020-01-09 15:44:03.983402496	4.470954356846471	232	33.512345	126.484564
191	스타벅스 인천송도DT점	송도동 8-17 레인보우빌딩	2020-02-05 08:19:35.510204160	4.466836734693878	183	37.3994143	126.6297563
192	스타벅스 이천증포DT점	경기 이천시 증포동 216-3 216-8, 216-10, 216-13, 217-5, 217-7	2020-01-26 08:00:00.000000000	4.466666666666667	103	37.2967832	127.457432
193	스타벅스 광주연제DT점	연제동 1088	2020-06-06 18:12:24.827586304	4.465517241379311	28	35.2014475	126.8636426
194	스타벅스 시흥대야DT점	대야동 501-3	2020-04-11 12:49:54.059405824	4.465346534653466	94	37.441667	126.7877611
195	스타벅스 종암DT점	종암동 29-10	2019-12-04 23:27:27.457627136	4.463276836158191	168	37.5919525	127.0360401
196	스타벅스 역곡역DT점	괴안동 112-25	2020-02-04 20:10:12.765957376	4.462765957446809	267	37.4834833	126.8092991
197	스타벅스 오산갈곶DT점	갈곶동 244-3 245, 245-1, 245-5번지	2020-02-06 13:26:48.510638336	4.460992907801418	134	37.1290776	127.0712245
198	스타벅스 천안서부대로DT점	쌍용동 254	2020-03-12 10:09:52.941176576	4.458823529411765	77	36.8035728	127.12718
199	스타벅스 춘천후평DT점	강원 춘천시 후평동 700-1	2020-01-15 19:13:30.471204096	4.458115183246075	181	37.8792637	127.7507526
200	스타벅스 용인시청DT점	삼가동 197-4 197-7, 264-6	2020-01-21 03:12:00.000000000	4.457142857142856	98	37.2402898	127.1709346
201	스타벅스 안양석수DT점	석수동 385-3	2019-12-07 02:17:57.844311296	4.455089820359281	153	37.4310609	126.9034526
202	스타벅스 대구두류DT점	두류동 135-14	2020-01-21 21:25:59.358288896	4.451871657754012	163	35.8588586	128.5612941
203	스타벅스 포천DT점	선단동 557	2020-02-26 15:31:45.882352896	4.450980392156863	92	37.8484032	127.1616196
204	스타벅스 광명소하DT점	소하동 1077	2020-01-18 15:38:03.428571392	4.4485714285714275	154	37.4348248	126.8791749
205	스타벅스 남양주진접DT점	장현리 230-6	2020-02-07 11:19:40.800000000	4.448	114	37.7230756	127.1903572
206	스타벅스 제주삼화DT점	제주 제주시 도련일동 2191-2	2020-04-27 03:13:25.970149376	4.447761194029852	65	33.5117687	126.5804734
207	스타벅스 대전수침교DT점	용문동 250-3	2020-02-18 09:55:29.323308288	4.447368421052632	128	36.3349683	127.3967289
208	스타벅스 방화DT점	방화동 293-4	2020-01-29 12:48:48.813559296	4.444915254237288	225	37.5743389	126.8164145
209	스타벅스 진해자은DT점	자은동 793-2	2020-02-14 03:06:48.648648704	4.443243243243243	162	35.1437928	128.7068813
210	스타벅스 풍무역DT점	풍무동 326-4	2020-04-04 19:19:19.322033920	4.436440677966102	112	37.6103332	126.7374313
211	스타벅스 공릉DT점	공릉동 597-34 597-30, 597-31, 597-32	2020-01-05 01:16:35.744680960	4.4361702127659575	264	37.6206966	127.0743197
212	스타벅스 밀양DT점	삼문동 532-3	2020-03-29 04:44:50.109890048	4.434065934065933	82	35.4853735	128.7512271
213	스타벅스 사상주례DT점	주례동 854	2020-02-18 05:39:18.620689664	4.433908045977012	157	35.1548839	128.9962191
214	스타벅스 전주덕진광장DT점	덕진동1가 1275-22	2020-01-02 02:31:09.613259776	4.433701657458563	173	35.8428779	127.1242053
215	스타벅스 광주수완DT점	수완동 670-11	2019-09-30 16:49:52.207792128	4.428571428571429	73	35.2031746	126.8190648
216	스타벅스 오산IC DT점	원동 119-85	2020-02-04 17:31:34.736841984	4.427631578947368	145	37.1433302	127.0789307
217	스타벅스 수영망미DT점	망미동 412-27	2020-01-01 10:30:00.000000000	4.42578125	112	35.1773864	129.1074676
218	스타벅스 양산덕계DT점	덕계동 323-2	2020-01-05 21:07:12.000000000	4.423333333333333	138	35.3759862	129.1556621
219	스타벅스 전북정읍DT점	수성동 449-1	2019-12-16 02:08:57.313432832	4.4216417910447765	131	35.5702727	126.8517013
220	스타벅스 광주신가DT점	신가동 706-1	2020-02-24 04:38:04.137931008	4.4206896551724135	138	35.1790794	126.8301383
221	스타벅스 신정DT점	신정동 981-15	2020-02-12 05:15:00.000000000	4.416666666666667	186	37.5220098	126.8588745
222	스타벅스 전주송천DT점	송천동2가 487	2020-03-04 01:30:56.842105344	4.41578947368421	173	35.8672981	127.121917
223	스타벅스 용인동백DT점	상하동 461-2	2019-12-02 14:25:49.367088640	4.4145569620253164	154	37.2745389	127.1412714
224	스타벅스 동서대DT점	주례동 189-9	2020-01-09 02:32:02.981366528	4.413043478260869	153	35.1507396	129.0096874
225	스타벅스 청주율량DT점	율량동 1068	2020-02-15 08:23:36.393442560	4.407103825136612	171	36.666229	127.4931282
226	스타벅스 백석역DT점	백석동 1296-3 1층	2020-02-15 14:53:09.873417728	4.401898734177215	153	37.6439377	126.7873856
227	스타벅스 용인보라DT점	보라동 376-6	2020-02-11 20:35:44.680850944	4.4007092198581566	134	37.2553805	127.1043864
228	스타벅스 청주비하DT점	비하동 671-11	2020-04-20 15:01:58.681318656	4.395604395604397	84	36.63842210000001	127.4221948
229	스타벅스 강동암사DT점	암사동 441-12	2020-03-15 07:57:15.428571392	4.388571428571429	155	37.55504	127.1300647
230	스타벅스 북수원IC DT점	파장동 469-4	2019-09-05 23:36:46.451612928	4.38508064516129	237	37.30795579999999	126.998326
231	스타벅스 수지성복DT점	성복동 83-2 1~2층	2019-12-05 03:48:03.257918464	4.384615384615385	195	37.3140313	127.0791332
232	스타벅스 의왕청계DT점	경기 의왕시 청계동 829-4	2020-04-23 08:18:27.692307712	4.378205128205129	75	37.3881077	126.9984271
233	스타벅스 부산안락DT점	안락동 256-4	2019-12-14 00:55:01.910828032	4.369426751592357	147	35.1958595	129.1069541
234	스타벅스 북오산IC DT점	외삼미동 327-29	2020-03-28 16:17:24.559585536	4.360103626943007	176	37.189891	127.0592024
235	스타벅스 경기광주쌍령DT점	쌍령동 168	2020-04-28 02:57:32.054794496	4.3424657534246585	65	37.3987506	127.2733178
236	스타벅스 전주효자DT점	효자동1가 410-6	2020-01-12 11:35:10.344827648	4.332512315270936	195	35.8058839	127.1110843
237	스타벅스 경기광주신현DT점	신현리 701-5	2020-03-17 08:16:33.103448320	4.331896551724138	108	37.3598852	127.1530391
238	스타벅스 구미도량DT점	도량동 315	2020-01-27 15:53:45.974025984	4.331168831168832	147	36.1383354	128.3168261
239	스타벅스 김해진영DT점	경상남도 김해시 진영읍 진영리 81	2020-06-13 10:17:08.571428608	4.328571428571428	32	35.3058947	128.7313911
240	스타벅스 대전도안DT점	봉명동 555-3	2019-12-14 12:41:36.000000000	4.32	218	36.35146220000001	127.3399813
241	스타벅스 대전가수원DT점	가수원동 655-20 스타벅스	2019-12-10 23:11:43.910614528	4.318435754189943	173	36.3035739	127.3489943
242	스타벅스 과천DT점	경기도 과천시 중앙동 79	2020-01-27 02:20:29.268292608	4.317073170731708	79	37.4392667	126.9938019
243	스타벅스 하남미사DT점	망월동 1066-3	2020-03-18 20:32:48.345323776	4.316546762589929	135	37.5675503	127.1892407
244	스타벅스 천안두정역DT점	두정동 71-13	2020-05-23 08:29:32.307692288	4.3	60	36.8328657	127.1461575
245	스타벅스 전주평화DT점	평화동2가 300-1	2020-01-21 19:08:21.265822720	4.294303797468355	147	35.7883624	127.1312939
246	스타벅스 속초DT점	조양동 1002-39	2020-01-11 05:39:13.846153728	4.293269230769232	192	38.1898709	128.5844124
247	스타벅스 울산중리사거리DT점	삼산동 1545-5	2020-01-05 08:00:00.000000000	4.272108843537415	136	35.54388	129.3386831
248	스타벅스 리버사이드팔당DTR점	도곡리 504-15	2020-01-30 14:54:47.861271552	4.173410404624279	321	37.5670974	127.2283782
